{
  "type": "FeatureCollection",
  "features": [
    {
      "type": "Feature",
      "properties": {
        "id": "5945030094",
        "name": "德興藥局",
        "phone": "03-8889408",
        "address": "花蓮縣玉里鎮國武里中山路２段５８號",
        "mask_adult": 2529,
        "mask_child": 486,
        "updated": "2020/05/21 14:23:32",
        "available": "星期一上午看診、星期二上午看診、星期三上午看診、星期四上午看診、星期五上午看診、星期六上午看診、星期日上午看診、星期一下午看診、星期二下午看診、星期三下午看診、星期四下午看診、星期五下午看診、星期六下午看診、星期日下午看診、星期一晚上看診、星期二晚上看診、星期三晚上看診、星期四晚上看診、星期五晚上看診、星期六晚上看診、星期日晚上看診",
        "note": "口罩販售，平常日下午一點開始，周日下午三點開始，成人口罩200份，兒童口罩20份，售完為止。",
        "custom_note": "",
        "website": "",
        "county": "花蓮縣",
        "town": "玉里鎮",
        "cunli": "國武里",
        "service_periods": "NNNNNNNNNNNNNNNNNNNNN"
      },
      "geometry": {
        "type": "Point",
        "coordinates": [
          121.315149,
          23.333096
        ]
      }
    },
    {
      "type": "Feature",
      "properties": {
        "id": "5932052540",
        "name": "南竹健保藥局",
        "phone": "03-3526182",
        "address": "桃園市蘆竹區南竹路一段７６號１樓",
        "mask_adult": 1107,
        "mask_child": 49,
        "updated": "2020/05/21 15:17:33",
        "available": "星期一上午看診、星期二上午看診、星期三上午看診、星期四上午看診、星期五上午看診、星期六上午看診、星期日上午看診、星期一下午看診、星期二下午看診、星期三下午看診、星期四下午看診、星期五下午看診、星期六下午看診、星期日下午看診、星期一晚上看診、星期二晚上看診、星期三晚上看診、星期四晚上看診、星期五晚上看診、星期六晚上看診、星期日晚上看診",
        "note": "口罩販賣時段：週一至週日下午3-5點發放號碼牌販售",
        "custom_note": "",
        "website": "",
        "county": "桃園市",
        "town": "蘆竹區",
        "cunli": "興榮里",
        "service_periods": "NNNNNNNNNNNNNNNNNNNNN"
      },
      "geometry": {
        "type": "Point",
        "coordinates": [
          121.290873,
          25.046913
        ]
      }
    },
    {
      "type": "Feature",
      "properties": {
        "id": "5939021490",
        "name": "庚辛藥局",
        "phone": "05-5953776",
        "address": "雲林縣斗南鎮中正路１３９－１號",
        "mask_adult": 4332,
        "mask_child": 1285,
        "updated": "2020/05/21 15:17:33",
        "available": "星期一上午看診、星期二上午看診、星期三上午看診、星期四上午看診、星期五上午看診、星期六上午看診、星期日上午休診、星期一下午看診、星期二下午看診、星期三下午看診、星期四下午看診、星期五下午看診、星期六下午看診、星期日下午休診、星期一晚上看診、星期二晚上看診、星期三晚上看診、星期四晚上看診、星期五晚上看診、星期六晚上看診、星期日晚上休診",
        "note": "周一至周六上午10:00開始現場販售，售完為止",
        "custom_note": "",
        "website": "",
        "county": "雲林縣",
        "town": "斗南鎮",
        "cunli": "中天里",
        "service_periods": "NNNNNNYNNNNNNYNNNNNNY"
      },
      "geometry": {
        "type": "Point",
        "coordinates": [
          120.477961,
          23.676421
        ]
      }
    },
    {
      "type": "Feature",
      "properties": {
        "id": "5943131436",
        "name": "東東藥局",
        "phone": "08-7780183",
        "address": "屏東縣內埔鄉內田村廣濟路４９號",
        "mask_adult": 2994,
        "mask_child": 215,
        "updated": "2020/05/21 15:17:33",
        "available": "星期一上午看診、星期二上午看診、星期三上午看診、星期四上午看診、星期五上午看診、星期六上午看診、星期日上午看診、星期一下午看診、星期二下午看診、星期三下午看診、星期四下午看診、星期五下午看診、星期六下午休診、星期日下午休診、星期一晚上看診、星期二晚上看診、星期三晚上看診、星期四晚上看診、星期五晚上看診、星期六晚上休診、星期日晚上休診",
        "note": "自4/13起，周一至周五早上8:30開始販售口罩，現場排隊，不發號碼牌，售完為止.周六，周日不販售口罩",
        "custom_note": "",
        "website": "",
        "county": "屏東縣",
        "town": "內埔鄉",
        "cunli": "內田村",
        "service_periods": "NNNNNNNNNNNNYYNNNNNYY"
      },
      "geometry": {
        "type": "Point",
        "coordinates": [
          120.565343,
          22.610048
        ]
      }
    },
    {
      "type": "Feature",
      "properties": {
        "id": "5907080081",
        "name": "英祥連鎖藥局仁雄店",
        "phone": "07-3722509",
        "address": "高雄市仁武區仁雄路３６之２號",
        "mask_adult": 2286,
        "mask_child": 1090,
        "updated": "2020/05/21 15:17:33",
        "available": "星期一上午看診、星期二上午看診、星期三上午看診、星期四上午看診、星期五上午看診、星期六上午看診、星期日上午看診、星期一下午看診、星期二下午看診、星期三下午看診、星期四下午看診、星期五下午看診、星期六下午看診、星期日下午看診、星期一晚上看診、星期二晚上看診、星期三晚上看診、星期四晚上看診、星期五晚上看診、星期六晚上看診、星期日晚上看診",
        "note": "-",
        "custom_note": "",
        "website": "",
        "county": "高雄市",
        "town": "仁武區",
        "cunli": "灣內里",
        "service_periods": "NNNNNNNNNNNNNNNNNNNNN"
      },
      "geometry": {
        "type": "Point",
        "coordinates": [
          120.351253,
          22.68115
        ]
      }
    },
    {
      "type": "Feature",
      "properties": {
        "id": "5932010908",
        "name": "大愛藥師藥局",
        "phone": "03-3376771",
        "address": "桃園市桃園區中正路４３５號",
        "mask_adult": 1978,
        "mask_child": 433,
        "updated": "2020/05/21 15:17:33",
        "available": "星期一上午休診、星期二上午休診、星期三上午休診、星期四上午休診、星期五上午休診、星期六上午休診、星期日上午休診、星期一下午看診、星期二下午看診、星期三下午看診、星期四下午看診、星期五下午看診、星期六下午看診、星期日下午看診、星期一晚上看診、星期二晚上看診、星期三晚上看診、星期四晚上看診、星期五晚上看診、星期六晚上看診、星期日晚上看診",
        "note": "販賣防疫口罩周一至周日",
        "custom_note": "",
        "website": "",
        "county": "桃園市",
        "town": "桃園區",
        "cunli": "永安里",
        "service_periods": "YYYYYYYNNNNNNNNNNNNNN"
      },
      "geometry": {
        "type": "Point",
        "coordinates": [
          121.306971,
          25.00095
        ]
      }
    },
    {
      "type": "Feature",
      "properties": {
        "id": "5903270105",
        "name": "樂得好大藥局",
        "phone": "04-24521173",
        "address": "臺中市西屯區上石路２號１樓",
        "mask_adult": 1403,
        "mask_child": 285,
        "updated": "2020/05/21 15:17:33",
        "available": "星期一上午看診、星期二上午看診、星期三上午看診、星期四上午看診、星期五上午看診、星期六上午看診、星期日上午休診、星期一下午看診、星期二下午看診、星期三下午看診、星期四下午看診、星期五下午看診、星期六下午休診、星期日下午休診、星期一晚上看診、星期二晚上看診、星期三晚上看診、星期四晚上看診、星期五晚上看診、星期六晚上休診、星期日晚上休診",
        "note": "星期一~周六09:30販賣口罩，售完為止",
        "custom_note": "",
        "website": "",
        "county": "臺中市",
        "town": "西屯區",
        "cunli": "上德里",
        "service_periods": "NNNNNNYNNNNNYYNNNNNYY"
      },
      "geometry": {
        "type": "Point",
        "coordinates": [
          120.644025,
          24.166692
        ]
      }
    },
    {
      "type": "Feature",
      "properties": {
        "id": "5932099678",
        "name": "龍華藥局",
        "phone": "03-4701489",
        "address": "桃園市龍潭區東龍路１６９號",
        "mask_adult": 5180,
        "mask_child": 460,
        "updated": "2020/05/21 15:17:33",
        "available": "星期一上午看診、星期二上午看診、星期三上午看診、星期四上午看診、星期五上午看診、星期六上午看診、星期日上午看診、星期一下午看診、星期二下午看診、星期三下午看診、星期四下午看診、星期五下午看診、星期六下午看診、星期日下午休診、星期一晚上看診、星期二晚上看診、星期三晚上看診、星期四晚上看診、星期五晚上看診、星期六晚上看診、星期日晚上休診",
        "note": "販賣時間:早上8點現場排隊領 售完止",
        "custom_note": "",
        "website": "",
        "county": "桃園市",
        "town": "龍潭區",
        "cunli": "龍星里",
        "service_periods": "NNNNNNNNNNNNNYNNNNNNY"
      },
      "geometry": {
        "type": "Point",
        "coordinates": [
          121.214645,
          24.863253
        ]
      }
    },
    {
      "type": "Feature",
      "properties": {
        "id": "5905350142",
        "name": "佳佳藥局",
        "phone": "06-2740783",
        "address": "臺南市北區開元路３０６－１號",
        "mask_adult": 1165,
        "mask_child": 340,
        "updated": "2020/05/21 15:17:33",
        "available": "星期一上午看診、星期二上午看診、星期三上午看診、星期四上午看診、星期五上午看診、星期六上午看診、星期日上午休診、星期一下午看診、星期二下午看診、星期三下午看診、星期四下午看診、星期五下午看診、星期六下午休診、星期日下午休診、星期一晚上看診、星期二晚上看診、星期三晚上看診、星期四晚上看診、星期五晚上看診、星期六晚上休診、星期日晚上休診",
        "note": "口罩代售時間自08;30，現場排隊",
        "custom_note": "",
        "website": "",
        "county": "臺南市",
        "town": "北區",
        "cunli": "合興里",
        "service_periods": "NNNNNNYNNNNNYYNNNNNYY"
      },
      "geometry": {
        "type": "Point",
        "coordinates": [
          120.223344,
          23.009005
        ]
      }
    },
    {
      "type": "Feature",
      "properties": {
        "id": "5937251105",
        "name": "宏吉藥局",
        "phone": "04-8976709",
        "address": "彰化縣竹塘鄉竹塘村仁愛街５０號",
        "mask_adult": 4392,
        "mask_child": 580,
        "updated": "2020/05/21 15:17:33",
        "available": "星期一上午看診、星期二上午看診、星期三上午看診、星期四上午看診、星期五上午看診、星期六上午看診、星期日上午休診、星期一下午看診、星期二下午看診、星期三下午看診、星期四下午看診、星期五下午看診、星期六下午休診、星期日下午休診、星期一晚上看診、星期二晚上休診、星期三晚上休診、星期四晚上看診、星期五晚上休診、星期六晚上休診、星期日晚上休診",
        "note": "固定周一到周六，早上7:50開始販賣防疫口罩(無發放號碼牌)",
        "custom_note": "",
        "website": "",
        "county": "彰化縣",
        "town": "竹塘鄉",
        "cunli": "竹塘村",
        "service_periods": "NNNNNNYNNNNNYYNYYNYYY"
      },
      "geometry": {
        "type": "Point",
        "coordinates": [
          120.42707,
          23.862823
        ]
      }
    },
    {
      "type": "Feature",
      "properties": {
        "id": "5901023966",
        "name": "愛維康生活藥局",
        "phone": "02-27059791",
        "address": "臺北市大安區四維路１７０巷２１號",
        "mask_adult": 1674,
        "mask_child": 1040,
        "updated": "2020/05/21 15:17:33",
        "available": "星期一上午看診、星期二上午看診、星期三上午看診、星期四上午看診、星期五上午看診、星期六上午看診、星期日上午看診、星期一下午看診、星期二下午看診、星期三下午看診、星期四下午看診、星期五下午看診、星期六下午看診、星期日下午休診、星期一晚上看診、星期二晚上看診、星期三晚上看診、星期四晚上看診、星期五晚上看診、星期六晚上看診、星期日晚上看診",
        "note": "-",
        "custom_note": "",
        "website": "",
        "county": "臺北市",
        "town": "大安區",
        "cunli": "龍雲里",
        "service_periods": "NNNNNNNNNNNNNYNNNNNNN"
      },
      "geometry": {
        "type": "Point",
        "coordinates": [
          121.547034,
          25.028317
        ]
      }
    },
    {
      "type": "Feature",
      "properties": {
        "id": "5932022104",
        "name": "彤顏醫美藥局",
        "phone": "03-4272798",
        "address": "桃園市中壢區元化路２７５之５號",
        "mask_adult": 3555,
        "mask_child": 1129,
        "updated": "2020/05/21 15:17:33",
        "available": "星期一上午看診、星期二上午休診、星期三上午看診、星期四上午看診、星期五上午看診、星期六上午看診、星期日上午看診、星期一下午看診、星期二下午看診、星期三下午看診、星期四下午看診、星期五下午看診、星期六下午看診、星期日下午看診、星期一晚上看診、星期二晚上看診、星期三晚上看診、星期四晚上看診、星期五晚上看診、星期六晚上看診、星期日晚上看診",
        "note": "口罩販賣時段：12:30-14:30",
        "custom_note": "",
        "website": "",
        "county": "桃園市",
        "town": "中壢區",
        "cunli": "新街里",
        "service_periods": "NYNNNNNNNNNNNNNNNNNNN"
      },
      "geometry": {
        "type": "Point",
        "coordinates": [
          121.225557,
          24.962329
        ]
      }
    },
    {
      "type": "Feature",
      "properties": {
        "id": "5931033194",
        "name": "廣惠藥局",
        "phone": "02-29290675",
        "address": "新北市永和區中正路６４９號２樓",
        "mask_adult": 3420,
        "mask_child": 1320,
        "updated": "2020/05/21 15:17:33",
        "available": "星期一上午看診、星期二上午看診、星期三上午看診、星期四上午看診、星期五上午看診、星期六上午看診、星期日上午休診、星期一下午看診、星期二下午看診、星期三下午看診、星期四下午看診、星期五下午看診、星期六下午看診、星期日下午休診、星期一晚上看診、星期二晚上看診、星期三晚上看診、星期四晚上看診、星期五晚上看診、星期六晚上看診、星期日晚上休診",
        "note": "-",
        "custom_note": "",
        "website": "",
        "county": "新北市",
        "town": "永和區",
        "cunli": "豫溪里",
        "service_periods": "NNNNNNYNNNNNNYNNNNNNY"
      },
      "geometry": {
        "type": "Point",
        "coordinates": [
          121.515159,
          25.01007
        ]
      }
    },
    {
      "type": "Feature",
      "properties": {
        "id": "5911071456",
        "name": "深美藥局",
        "phone": "02-24685728",
        "address": "基隆市信義區深澳坑路１－５８號",
        "mask_adult": 3186,
        "mask_child": 680,
        "updated": "2020/05/21 15:17:33",
        "available": "星期一上午看診、星期二上午看診、星期三上午看診、星期四上午看診、星期五上午看診、星期六上午休診、星期日上午看診、星期一下午看診、星期二下午看診、星期三下午看診、星期四下午看診、星期五下午看診、星期六下午休診、星期日下午休診、星期一晚上看診、星期二晚上看診、星期三晚上看診、星期四晚上看診、星期五晚上看診、星期六晚上休診、星期日晚上休診",
        "note": "週一至五於下午一點販賣口罩；週六公休；4/19起，週日不販賣口罩",
        "custom_note": "",
        "website": "",
        "county": "基隆市",
        "town": "信義區",
        "cunli": "孝賢里",
        "service_periods": "NNNNNYNNNNNNYYNNNNNYY"
      },
      "geometry": {
        "type": "Point",
        "coordinates": [
          121.773894,
          25.136619
        ]
      }
    },
    {
      "type": "Feature",
      "properties": {
        "id": "5901202583",
        "name": "康宜庭景文藥局",
        "phone": "02-29302801",
        "address": "臺北市文山區景文街９７號",
        "mask_adult": 4140,
        "mask_child": 1480,
        "updated": "2020/05/21 15:17:33",
        "available": "星期一上午看診、星期二上午看診、星期三上午看診、星期四上午看診、星期五上午看診、星期六上午看診、星期日上午看診、星期一下午看診、星期二下午看診、星期三下午看診、星期四下午看診、星期五下午看診、星期六下午看診、星期日下午看診、星期一晚上看診、星期二晚上看診、星期三晚上看診、星期四晚上看診、星期五晚上看診、星期六晚上看診、星期日晚上看診",
        "note": "口罩代售14:30開始發放號碼牌，發完即開始販售，勿離開現場。",
        "custom_note": "",
        "website": "",
        "county": "臺北市",
        "town": "文山區",
        "cunli": "景行里",
        "service_periods": "NNNNNNNNNNNNNNNNNNNNN"
      },
      "geometry": {
        "type": "Point",
        "coordinates": [
          121.541346,
          24.99093
        ]
      }
    },
  ]
}

